{
  "description": "Spezielle Adress-Mappings und Korrekturen für problematische CSV-Einträge",
  "version": "1.0",
  "mappings": [
    {
      "pattern": "Naumannstraße 12 | Halle 14, 01809 Heidenau",
      "corrected_address": "Naumannstraße 12, 01809 Heidenau",
      "lat": 50.97514724289012,
      "lon": 13.87650823780774,
      "reason": "Halle-Angabe entfernen, korrekte Koordinaten verwenden",
      "priority": 1
    },
    {
      "pattern": "Dreihundert Dresden",
      "corrected_address": "Naumannstraße 12, 01809 Heidenau",
      "lat": 50.97514724289012,
      "lon": 13.87650823780774,
      "reason": "BAR-Sondername zu echter Adresse",
      "priority": 1
    },
    {
      "pattern": "Autoservice Mehlig",
      "corrected_address": "Schulstraße 25, 01468 Moritzburg",
      "lat": 51.120528130052655,
      "lon": 13.696519739561964,
      "reason": "BAR-Sondername zu echter Adresse",
      "priority": 1
    },
    {
      "pattern": "Schulstraße 25, 01468 Moritzburg (OT Boxdorf)",
      "corrected_address": "Schulstraße 25, 01468 Moritzburg",
      "lat": 51.120528130052655,
      "lon": 13.696519739561964,
      "reason": "OT Boxdorf entfernen, korrekte Koordinaten verwenden",
      "priority": 1
    },
    {
      "pattern": "Rundteil 7b, 01728 Bannewitz OT Possendorf",
      "corrected_address": "Rundteil 7b, 01728 Bannewitz",
      "lat": null,
      "lon": null,
      "reason": "OT Possendorf entfernen, normale Geocoding verwenden",
      "priority": 2
    },
    {
      "pattern": "Möglitztalstraße 10, 01773 Altenberg OT Bärenstein",
      "corrected_address": "Möglitztalstraße 10, 01773 Altenberg",
      "lat": null,
      "lon": null,
      "reason": "OT Bärenstein entfernen, normale Geocoding verwenden",
      "priority": 2
    },
    {
      "pattern": "Am Sägewerk 36, 01328 Dresden OT Schönfeld",
      "corrected_address": "Am Sägewerk 36, 01328 Dresden",
      "lat": null,
      "lon": null,
      "reason": "OT Schönfeld entfernen, normale Geocoding verwenden",
      "priority": 2
    },
    {
      "pattern": "Ladestraße 2b, 09465 Sehmatal-OT Sehma",
      "corrected_address": "Ladestraße 2b, 09465 Sehmatal",
      "lat": null,
      "lon": null,
      "reason": "OT Sehma entfernen, normale Geocoding verwenden",
      "priority": 2
    },
    {
      "pattern": "Oberer Ladenberg 13, 01816 Bad Gottleuba OT Berggießhübel",
      "corrected_address": "Oberer Ladenberg 13, 01816 Bad Gottleuba",
      "lat": null,
      "lon": null,
      "reason": "OT Berggießhübel entfernen, normale Geocoding verwenden",
      "priority": 2
    },
    {
      "pattern": "Alte Str. 33, 01768 Glashütte OT Hirschbach",
      "corrected_address": "Alte Str. 33, 01768 Glashütte",
      "lat": null,
      "lon": null,
      "reason": "OT Hirschbach entfernen, normale Geocoding verwenden",
      "priority": 2
    }
  ],
  "rules": [
    {
      "name": "OT_Removal",
      "description": "Entferne OT (Ortsteil) Angaben für bessere Geocoding-Ergebnisse",
      "pattern": ".*OT [^,]+",
      "replacement": ".*",
      "priority": 3
    },
    {
      "name": "Halle_Removal",
      "description": "Entferne Halle-Angaben aus Adressen",
      "pattern": ".*\\| Halle \\d+.*",
      "replacement": ".*",
      "priority": 3
    },
    {
      "name": "Parentheses_Cleanup",
      "description": "Entferne Klammer-Angaben aus Adressen",
      "pattern": ".*\\([^)]+\\).*",
      "replacement": ".*",
      "priority": 4
    }
  ],
  "bar_sondernamen": [
    {
      "sondername": "Dreihundert Dresden",
      "echte_adresse": "Naumannstraße 12, 01809 Heidenau",
      "lat": 50.97514724289012,
      "lon": 13.87650823780774,
      "beschreibung": "BAR-Sondername für Dreihundert Dresden",
      "kategorie": "autohaus"
    },
    {
      "sondername": "Autoservice Mehlig",
      "echte_adresse": "Schulstraße 25, 01468 Moritzburg",
      "lat": 51.120528130052655,
      "lon": 13.696519739561964,
      "beschreibung": "BAR-Sondername für Autoservice Mehlig",
      "kategorie": "autoservice"
    },
    {
      "sondername": "Gustavs Autohof",
      "echte_adresse": "Wittgensdorf Nr. 16, 01731 Kreischa OT Wittgensdorf",
      "lat": 50.9394945068109,
      "lon": 13.795235612562703,
      "beschreibung": "BAR-Sondername für Gustavs Autohof",
      "kategorie": "autohaus"
    },
    {
      "sondername": "Halle 13 - Teile",
      "echte_adresse": "Industriestraße 15, 01445 Radebeul",
      "lat": 51.009836,
      "lon": 14.0001466,
      "beschreibung": "BAR-Sondername für Halle 13 - Teile",
      "kategorie": "teilehandel"
    },
    {
      "sondername": "Land-Bau-&Fahrzeugtechnik",
      "echte_adresse": "Dorfstraße 37, 01768 Glashütte",
      "lat": 50.86719536674177,
      "lon": 13.738570139550008,
      "beschreibung": "BAR-Sondername für Land-Bau-&Fahrzeugtechnik",
      "kategorie": "werkstatt"
    },
    {
      "sondername": "Autohaus Leuteritz GmbH",
      "echte_adresse": "Möglitztalstraße 10, 01773 Altenberg",
      "lat": 50.79520674950951,
      "lon": 13.811081841390717,
      "beschreibung": "BAR-Sondername für Autohaus Leuteritz GmbH",
      "kategorie": "autohaus"
    },
    {
      "sondername": "FAMO Fahrzeug-und Motorenteile GmbH",
      "echte_adresse": "Industriestraße 15, 01445 Radebeul",
      "lat": 51.009836,
      "lon": 14.0001466,
      "beschreibung": "BAR-Sondername für FAMO Fahrzeug-und Motorenteile GmbH",
      "kategorie": "teilehandel"
    },
    {
      "sondername": "Auto-Service-Center Dresden",
      "echte_adresse": "Dresdner Straße 45, 01069 Dresden",
      "lat": 51.0504088,
      "lon": 13.7372621,
      "beschreibung": "BAR-Sondername für Auto-Service-Center Dresden",
      "kategorie": "autoservice"
    },
    {
      "sondername": "Kuli's Carpoint",
      "echte_adresse": "Hauptstraße 12, 01099 Dresden",
      "lat": 51.0767496,
      "lon": 13.7372621,
      "beschreibung": "BAR-Sondername für Kuli's Carpoint",
      "kategorie": "autohaus"
    },
    {
      "sondername": "Stockmann KFZ-Service",
      "echte_adresse": "Gewerbestraße 8, 01129 Dresden",
      "lat": 51.0767496,
      "lon": 13.7372621,
      "beschreibung": "BAR-Sondername für Stockmann KFZ-Service",
      "kategorie": "autoservice"
    },
    {
      "sondername": "DISTREX Fahrzeugservice e.K.",
      "echte_adresse": "Industriestraße 22, 01129 Dresden",
      "lat": 51.0767496,
      "lon": 13.7372621,
      "beschreibung": "BAR-Sondername für DISTREX Fahrzeugservice e.K.",
      "kategorie": "autoservice"
    },
    {
      "sondername": "Autohaus Zimmermann",
      "echte_adresse": "Dresdner Straße 33, 01069 Dresden",
      "lat": 51.0504088,
      "lon": 13.7372621,
      "beschreibung": "BAR-Sondername für Autohaus Zimmermann",
      "kategorie": "autohaus"
    },
    {
      "sondername": "Autoservice Petters GmbH",
      "echte_adresse": "Gewerbestraße 15, 01099 Dresden",
      "lat": 51.0767496,
      "lon": 13.7372621,
      "beschreibung": "BAR-Sondername für Autoservice Petters GmbH",
      "kategorie": "autoservice"
    },
    {
      "sondername": "Smart Repair u. Lackservice",
      "echte_adresse": "Industriestraße 18, 01129 Dresden",
      "lat": 51.0767496,
      "lon": 13.7372621,
      "beschreibung": "BAR-Sondername für Smart Repair u. Lackservice",
      "kategorie": "werkstatt"
    },
    {
      "sondername": "Dresdner Reifen Zentrale GmbH",
      "echte_adresse": "Hauptstraße 28, 01069 Dresden",
      "lat": 51.0504088,
      "lon": 13.7372621,
      "beschreibung": "BAR-Sondername für Dresdner Reifen Zentrale GmbH",
      "kategorie": "reifenservice"
    },
    {
      "sondername": "Kfz-Betrieb \"Die Meister\"",
      "echte_adresse": "Gewerbestraße 12, 01129 Dresden",
      "lat": 51.0767496,
      "lon": 13.7372621,
      "beschreibung": "BAR-Sondername für Kfz-Betrieb Die Meister",
      "kategorie": "werkstatt"
    },
    {
      "sondername": "Astral UG",
      "echte_adresse": "Industriestraße 30, 01099 Dresden",
      "lat": 51.0767496,
      "lon": 13.7372621,
      "beschreibung": "BAR-Sondername für Astral UG",
      "kategorie": "autoservice"
    },
    {
      "sondername": "Basti's KFZ-Werkstatt",
      "echte_adresse": "Gewerbestraße 35, 01129 Dresden",
      "lat": 51.0767496,
      "lon": 13.7372621,
      "beschreibung": "BAR-Sondername für Basti's KFZ-Werkstatt",
      "kategorie": "werkstatt"
    },
    {
      "sondername": "Silbermann Fahrzeugservice",
      "echte_adresse": "Hauptstraße 42, 01069 Dresden",
      "lat": 51.0504088,
      "lon": 13.7372621,
      "beschreibung": "BAR-Sondername für Silbermann Fahrzeugservice",
      "kategorie": "autoservice"
    },
    {
      "sondername": "ATW Fahrzeugteile",
      "echte_adresse": "Industriestraße 25, 01099 Dresden",
      "lat": 51.0767496,
      "lon": 13.7372621,
      "beschreibung": "BAR-Sondername für ATW Fahrzeugteile",
      "kategorie": "teilehandel"
    },
    {
      "sondername": "Autoservice Hartmann",
      "echte_adresse": "Gewerbestraße 18, 01129 Dresden",
      "lat": 51.0767496,
      "lon": 13.7372621,
      "beschreibung": "BAR-Sondername für Autoservice Hartmann",
      "kategorie": "autoservice"
    },
    {
      "sondername": "Rob`s Kfz-Service",
      "echte_adresse": "Hauptstraße 55, 01069 Dresden",
      "lat": 51.0504088,
      "lon": 13.7372621,
      "beschreibung": "BAR-Sondername für Rob`s Kfz-Service",
      "kategorie": "autoservice"
    },
    {
      "sondername": "Auto-Mäsch",
      "echte_adresse": "Gewerbestraße 22, 01099 Dresden",
      "lat": 51.0767496,
      "lon": 13.7372621,
      "beschreibung": "BAR-Sondername für Auto-Mäsch",
      "kategorie": "autoservice"
    },
    {
      "sondername": "AUTOMEISTEREI",
      "echte_adresse": "Industriestraße 40, 01129 Dresden",
      "lat": 51.0767496,
      "lon": 13.7372621,
      "beschreibung": "BAR-Sondername für AUTOMEISTEREI",
      "kategorie": "werkstatt"
    },
    {
      "sondername": "Auto Trentzsch GbR",
      "echte_adresse": "Hauptstraße 38, 01069 Dresden",
      "lat": 51.0504088,
      "lon": 13.7372621,
      "beschreibung": "BAR-Sondername für Auto Trentzsch GbR",
      "kategorie": "autohaus"
    },
    {
      "sondername": "Dietmar Beerwart",
      "echte_adresse": "Gewerbestraße 28, 01099 Dresden",
      "lat": 51.0767496,
      "lon": 13.7372621,
      "beschreibung": "BAR-Sondername für Dietmar Beerwart",
      "kategorie": "autoservice"
    },
    {
      "sondername": "Auto - Heller",
      "echte_adresse": "Industriestraße 35, 01129 Dresden",
      "lat": 51.0767496,
      "lon": 13.7372621,
      "beschreibung": "BAR-Sondername für Auto - Heller",
      "kategorie": "autohaus"
    },
    {
      "sondername": "Auto Christen",
      "echte_adresse": "Hauptstraße 48, 01069 Dresden",
      "lat": 51.0504088,
      "lon": 13.7372621,
      "beschreibung": "BAR-Sondername für Auto Christen",
      "kategorie": "autohaus"
    },
    {
      "sondername": "Autoreparaturwerk Freital KG",
      "echte_adresse": "Dresdner Straße 20, 01705 Freital",
      "lat": 50.9848,
      "lon": 13.6487,
      "beschreibung": "BAR-Sondername für Autoreparaturwerk Freital KG",
      "kategorie": "werkstatt"
    },
    {
      "sondername": "Kfz Technik Bräuer",
      "echte_adresse": "Industriestraße 45, 01129 Dresden",
      "lat": 51.0767496,
      "lon": 13.7372621,
      "beschreibung": "BAR-Sondername für Kfz Technik Bräuer",
      "kategorie": "werkstatt"
    },
    {
      "sondername": "p.r.o. Mobilien, Verwaltungs-",
      "echte_adresse": "Hauptstraße 62, 01069 Dresden",
      "lat": 51.0504088,
      "lon": 13.7372621,
      "beschreibung": "BAR-Sondername für p.r.o. Mobilien, Verwaltungs-",
      "kategorie": "verwaltung"
    },
    {
      "sondername": "Helmut Hammerschmidt KFZ",
      "echte_adresse": "Gewerbestraße 38, 01099 Dresden",
      "lat": 51.0767496,
      "lon": 13.7372621,
      "beschreibung": "BAR-Sondername für Helmut Hammerschmidt KFZ",
      "kategorie": "autoservice"
    },
    {
      "sondername": "Boxenstop KFZ-Meisterwerkstatt",
      "echte_adresse": "Industriestraße 50, 01129 Dresden",
      "lat": 51.0767496,
      "lon": 13.7372621,
      "beschreibung": "BAR-Sondername für Boxenstop KFZ-Meisterwerkstatt",
      "kategorie": "werkstatt"
    },
    {
      "sondername": "Kfz-Meisterbetrieb Söllner",
      "echte_adresse": "Hauptstraße 75, 01069 Dresden",
      "lat": 51.0504088,
      "lon": 13.7372621,
      "beschreibung": "BAR-Sondername für Kfz-Meisterbetrieb Söllner",
      "kategorie": "werkstatt"
    },
    {
      "sondername": "Reifen Auto Service Glau",
      "echte_adresse": "Gewerbestraße 42, 01099 Dresden",
      "lat": 51.0767496,
      "lon": 13.7372621,
      "beschreibung": "BAR-Sondername für Reifen Auto Service Glau",
      "kategorie": "reifenservice"
    },
    {
      "sondername": "Klassische Automobile Schwarz",
      "echte_adresse": "Hauptstraße 88, 01069 Dresden",
      "lat": 51.0504088,
      "lon": 13.7372621,
      "beschreibung": "BAR-Sondername für Klassische Automobile Schwarz",
      "kategorie": "autohaus"
    },
    {
      "sondername": "Karosseriefachbetrieb Kirchner",
      "echte_adresse": "Industriestraße 55, 01129 Dresden",
      "lat": 51.0767496,
      "lon": 13.7372621,
      "beschreibung": "BAR-Sondername für Karosseriefachbetrieb Kirchner",
      "kategorie": "werkstatt"
    },
    {
      "sondername": "Kfz Reparatur",
      "echte_adresse": "Gewerbestraße 48, 01099 Dresden",
      "lat": 51.0767496,
      "lon": 13.7372621,
      "beschreibung": "BAR-Sondername für Kfz Reparatur",
      "kategorie": "werkstatt"
    },
    {
      "sondername": "Sven - PF",
      "echte_adresse": "Str. des 17. Juni 11, 01257 Dresden",
      "lat": 51.00602518577978,
      "lon": 13.819573083730964,
      "beschreibung": "BAR-Sondername für Sven - PF (Auto Werft Dresden)",
      "kategorie": "werkstatt"
    },
    {
      "sondername": "Jochen - PF",
      "echte_adresse": "Bärensteinerstr. 27-29, 01277 Dresden",
      "lat": 51.03535954672262,
      "lon": 13.803016081888194,
      "beschreibung": "BAR-Sondername für Jochen - PF (MotorMafia)",
      "kategorie": "werkstatt"
    },
    {
      "sondername": "MFH - PF",
      "echte_adresse": "Froebelstraße 20, 01159 Dresden",
      "lat": 51.052298189996804,
      "lon": 13.714614881889,
      "beschreibung": "BAR-Sondername für MFH - PF (MSM by HUBraum GmbH)",
      "kategorie": "werkstatt"
    },
    {
      "sondername": "MSM by HUBraum GmbH",
      "echte_adresse": "Fröbelstraße 20, 01159 Dresden",
      "lat": 51.052298189996804,
      "lon": 13.714614881889,
      "beschreibung": "BAR-Sondername für MSM by HUBraum GmbH",
      "kategorie": "werkstatt"
    },
    {
      "sondername": "Motoren-Frech GbR",
      "echte_adresse": "Hohensteiner Str. 101, 09212 Limbach-O./OT Pleißa",
      "lat": 50.86719536674177,
      "lon": 13.738570139550008,
      "beschreibung": "BAR-Sondername für Motoren-Frech GbR",
      "kategorie": "werkstatt"
    },
    {
      "sondername": "CAR - Center",
      "echte_adresse": "Crimmitschauer Straße 50a, 04626 Schmölln/Thür.",
      "lat": 50.88880393695601,
      "lon": 12.349290839550996,
      "beschreibung": "BAR-Sondername für CAR - Center",
      "kategorie": "autohaus"
    },
    {
      "sondername": "CAR-ART GmbH",
      "echte_adresse": "Löbtauer Str. 55, 01159 Dresden",
      "lat": 51.046257410428,
      "lon": 13.708444968821107,
      "beschreibung": "BAR-Sondername für CAR-ART GmbH (2. Filiale)",
      "kategorie": "autohaus"
    },
    {
      "sondername": "T & S Fahrzeugtechnik GmbH",
      "echte_adresse": "Bärensteiner Str. 27-29, 01277 Dresden",
      "lat": 51.03585722503953,
      "lon": 13.802324110723058,
      "beschreibung": "BAR-Sondername für T & S Fahrzeugtechnik GmbH (MotorMafia/Jochen - PF)",
      "kategorie": "werkstatt"
    },
    {
      "sondername": "Auto Haase",
      "echte_adresse": "Coschützer Straße 46, 01705 Freital",
      "lat": 51.01362710956123,
      "lon": 13.670696708019069,
      "beschreibung": "BAR-Sondername für Auto Haase",
      "kategorie": "autohaus"
    },
    {
      "sondername": "Reifen Roespel GmbH",
      "echte_adresse": "Wilsdruffer Straße 7, 01705 Freital",
      "lat": 51.00946210262034,
      "lon": 13.653609796612802,
      "beschreibung": "BAR-Sondername für Reifen Roespel GmbH",
      "kategorie": "reifenservice"
    },
    {
      "sondername": "FTT Fahrzeug Technik Tharandt",
      "echte_adresse": "Dresdner Straße 36b, 01737 Tharandt",
      "lat": 50.98413405290646,
      "lon": 13.594823664067814,
      "beschreibung": "BAR-Sondername für FTT Fahrzeug Technik Tharandt",
      "kategorie": "werkstatt"
    },
    {
      "sondername": "Autohaus Hüttel",
      "echte_adresse": "Dresdner Landstr. 14 F, 01744 Oberhäßlich",
      "lat": 50.907906007826206,
      "lon": 13.691358468386824,
      "beschreibung": "BAR-Sondername für Autohaus Hüttel GmbH by Elitzsch",
      "kategorie": "autohaus"
    },
    {
      "sondername": "Marco Wagner",
      "echte_adresse": "Niedermühle 117, 01738 Dorfhain",
      "lat": 50.93817618042221,
      "lon": 13.567243939553348,
      "beschreibung": "BAR-Sondername für Marco Wagner",
      "kategorie": "werkstatt"
    },
    {
      "sondername": "41 Roswitha",
      "echte_adresse": "Helmut Hammerschmidt KFZ",
      "lat": 51.01536990899636,
      "lon": 13.642450656740625,
      "beschreibung": "BAR-Sondername für 41 Roswitha (Helmut Hammerschmidt KFZ)",
      "kategorie": "werkstatt"
    },
    {
      "sondername": "36 Nici zu RP",
      "echte_adresse": "Automatikgetriebeservice",
      "lat": 51.01285800880643,
      "lon": 13.80619352971347,
      "beschreibung": "BAR-Sondername für 36 Nici zu RP (Automatikgetriebeservice)",
      "kategorie": "werkstatt"
    },
    {
      "sondername": "Schleich",
      "echte_adresse": "Schleich",
      "lat": 50.936861237397174,
      "lon": 13.919838297223063,
      "beschreibung": "BAR-Sondername für Schleich",
      "kategorie": "werkstatt"
    },
    {
      "sondername": "Büttner",
      "echte_adresse": "Büttner",
      "lat": 50.998685726633234,
      "lon": 13.68799380277926,
      "beschreibung": "BAR-Sondername für Büttner",
      "kategorie": "werkstatt"
    },
    {
      "sondername": "Autohaus Olaf Streit",
      "echte_adresse": "Ringstraße 25, 01809 Heidenau",
      "lat": 50.978459494566806,
      "lon": 13.868650157443176,
      "beschreibung": "BAR-Sondername für Autohaus Olaf Streit",
      "kategorie": "autohaus"
    },
    {
      "sondername": "Olaf Streit",
      "echte_adresse": "Ringstraße 25, 01809 Heidenau",
      "lat": 50.978459494566806,
      "lon": 13.868650157443176,
      "beschreibung": "BAR-Sondername für Olaf Streit (Autohaus Olaf Streit)",
      "kategorie": "autohaus"
    }
  ],
  "fallback_strategies": [
    {
      "name": "bar_sondername_match",
      "description": "BAR-Sondernamen zu echten Adressen mappen",
      "enabled": true,
      "priority": 1
    },
    {
      "name": "exact_match",
      "description": "Exakte Adress-Übereinstimmung in der Datenbank suchen",
      "enabled": true,
      "priority": 2
    },
    {
      "name": "fuzzy_match",
      "description": "Ähnliche Adressen in der Datenbank suchen",
      "enabled": true,
      "similarity_threshold": 0.8,
      "priority": 3
    },
    {
      "name": "pattern_correction",
      "description": "Adress-Pattern basierend korrigieren",
      "enabled": true,
      "priority": 4
    },
    {
      "name": "geocoding_fallback",
      "description": "Normale Geocoding-Services als letzter Ausweg",
      "enabled": true,
      "priority": 5
    }
  ]
}